{
  "data": [
      { 
        "name": "Original",
        "location": 
        {
          "positionByDay": 
          {
            "1": { "address": "655 Avenue Galilée, Aix la Duranne", "distance": "2.1 km", "lat": 43.485916, "lon": 5.343199 },
            "2": { "address": "365 Avenue Archimède, Aix la Duranne", "distance": "1.4 km", "lat": 43.490515, "lon": 5.340137 },
            "3": {"address": "Place de l'horloge, Aix la Duranne", "distance": "10 km", "lat": 43.527778, "lon": 5.420569 },
            "4": {"address": "5 Chemin des Gorges de Cabriès, Vitrolles", "distance": "11.7 km", "lat": 43.433486, "lon": 5.278484 },
            "5": {"address": "180, Rue Réné Descartes, Aix la Duranne", "distance": "190 m", "lat": 43.495399, "lon": 5.344490 }
          }
        },
        "menu": "../assets/images/menu_original.png",
        "totalVote": 0,
        "upvote": 0,
        "profileImage": "../assets/images/original.png",
        "color": "#F29625"
      },
      { 
        "name": "Léo",
        "location": 
        {
          "position":
          { "address": "565 Rue Marcellin Berthelot, Aix la Duranne", "distance": "5.3 km", "lat": 43.491694, "lon": 5.372238 }
        },
        "menu": "../assets/images/menu_leo.png",
        "totalVote": 0,
        "upvote": 0,
        "profileImage": "../assets/images/leo.png"
      },
      { 
        "name": "La Mie Dinette",
        "location": 
        {
          "position":
          { "address": "5 Rue Charles Duchesne, Aix la Duranne", "distance": "4 km", "lat": 43.492068, "lon": 5.370904 }
        },        
        "menu": "../assets/images/menu_md.svg",
        "totalVote": 0,
        "upvote": 0,
        "profileImage": "../assets/images/md.png"
      },
      { 
        "name": "OTrio",
        "location": 
        {
          "position":
          { "address": "80 Rue Charles Duchesne, Aix la Duranne", "distance": "4 km", "lat": 43.491601, "lon": 5.371677 }
        },
        "menu": "../assets/images/menu_otrio.png",
        "totalVote": 0,
        "upvote": 0,
        "profileImage": "../assets/images/otrio.png"
      },
      { 
        "name": "Les saveurs d'arménie",
        "location": 
        {
          "positionByDay": 
          {
            "1": { "address": "", "distance": "Fermé", "lat": 0, "lon": 0 },
            "2": { "address": "", "distance": "Fermé", "lat": 0, "lon": 0 },
            "3": {"address": "", "distance": "Fermé", "lat": 0, "lon": 0 },
            "4": {"address": "", "distance": "Fermé", "lat": 0, "lon": 0 },
            "5": {"address": "180, Rue René Descartes, Aix la Duranne", "distance": "200 m", "lat": 43.39399, "lon": 5.34490 }
          }
        },
        "menu": "../assets/images/menu_saveurs.png",
        "totalVote": 0,
        "upvote": 0,
        "profileImage": "../assets/images/saveurs.png"
      },
      { 
        "name": "Le Moana",
        "location": 
        {
          "positionByDay": 
          {
            "1": { "address": "Fermé", "distance": "Fermé", "lat": 0, "lon": 0 },
            "2": { "address": "Marseille ou Marignane 1 mardi /2", "distance": "Luminy ou Marignane", "lat": 0, "lon": 0 },
            "3": {"address": "380 Avenue Archimède, Aix la Duranne", "distance": "1.5 km", "lat": 43.489570, "lon": 5.338640 },
            "4": {"address": "30 rue Frédéric Joliot, Aix la Duranne", "distance": "4.7 km", "lat": 43.488705, "lon": 5.378349 },
            "5": {"address": "655 avenue de Galilée, Aix la Duranne", "distance": "2.1 km", "lat": 43.485854, "lon": 5.343156 }
          }
        },
        "menu": "../assets/images/menu_mohana.jpg",
        "totalVote": 0,
        "upvote": 0,
        "profileImage": "../assets/images/mohana.jpg"
      },
      { 
        "name": "El Jefe",
        "location": 
        {
          "positionByDay": 
          {
            "1": { "address": "Route de Berre, Éguilles", "distance": "7.5 km", "lat": 43.544732, "lon": 5.359697 },
            "2": { "address": "Fermé", "distance": "Fermé", "lat": 0, "lon": 0 },
            "3": {"address": "Rue François Dumouriez, Vitrolles", "distance": "15.8 km", "lat": 43.445046, "lon": 5.245155 },
            "4": {"address": "Avenue Louis Phillibert, Aix la Duranne", "distance": "1.2 km", "lat": 43.492653, "lon": 5.340625 },
            "5": {"address": "Fermé", "distance": "Fermé", "lat": 0, "lon": 0 }
          }
        },
        "menu": "../assets/images/menu_eljefe.svg",
        "totalVote": 0,
        "upvote": 0,
        "profileImage": "../assets/images/eljefe.png"
      }
  ]
}
